{"id":2,"name":"San Jose Diridon Caltrain Station","lat":37.329732,"long":-121.901782,"dock_count":27,"city":"San Jose","installation_date":"8/6/2013"}
{"id":3,"name":"San Jose Civic Center","lat":37.330698,"long":-121.888979,"dock_count":15,"city":"San Jose","installation_date":"8/5/2013"}
{"id":4,"name":"Santa Clara at Almaden","lat":37.333988,"long":-121.894902,"dock_count":11,"city":"San Jose","installation_date":"8/6/2013"}
{"id":5,"name":"Adobe on Almaden","lat":37.331415,"long":-121.8932,"dock_count":19,"city":"San Jose","installation_date":"8/5/2013"}
{"id":6,"name":"San Pedro Square","lat":37.336721,"long":-121.894074,"dock_count":15,"city":"San Jose","installation_date":"8/7/2013"}
{"id":7,"name":"Paseo de San Antonio","lat":37.333798,"long":-121.886943,"dock_count":15,"city":"San Jose","installation_date":"8/7/2013"}
{"id":8,"name":"San Salvador at 1st","lat":37.330165,"long":-121.885831,"dock_count":15,"city":"San Jose","installation_date":"8/5/2013"}
{"id":9,"name":"Japantown","lat":37.348742,"long":-121.894715,"dock_count":15,"city":"San Jose","installation_date":"8/5/2013"}
{"id":10,"name":"San Jose City Hall","lat":37.337391,"long":-121.886995,"dock_count":15,"city":"San Jose","installation_date":"8/6/2013"}
{"id":11,"name":"MLK Library","lat":37.335885,"long":-121.88566,"dock_count":19,"city":"San Jose","installation_date":"8/6/2013"}
{"id":12,"name":"SJSU 4th at San Carlos","lat":37.332808,"long":-121.883891,"dock_count":19,"city":"San Jose","installation_date":"8/7/2013"}
{"id":13,"name":"St James Park","lat":37.339301,"long":-121.889937,"dock_count":15,"city":"San Jose","installation_date":"8/6/2013"}
{"id":14,"name":"Arena Green / SAP Center","lat":37.332692,"long":-121.900084,"dock_count":19,"city":"San Jose","installation_date":"8/5/2013"}
{"id":16,"name":"SJSU - San Salvador at 9th","lat":37.333955,"long":-121.877349,"dock_count":15,"city":"San Jose","installation_date":"8/7/2013"}
{"id":21,"name":"Franklin at Maple","lat":37.481758,"long":-122.226904,"dock_count":15,"city":"Redwood City","installation_date":"8/12/2013"}
{"id":22,"name":"Redwood City Caltrain Station","lat":37.486078,"long":-122.232089,"dock_count":25,"city":"Redwood City","installation_date":"8/15/2013"}
{"id":23,"name":"San Mateo County Center","lat":37.487616,"long":-122.229951,"dock_count":15,"city":"Redwood City","installation_date":"8/15/2013"}
{"id":24,"name":"Redwood City Public Library","lat":37.484219,"long":-122.227424,"dock_count":15,"city":"Redwood City","installation_date":"8/12/2013"}
{"id":25,"name":"Stanford in Redwood City","lat":37.48537,"long":-122.203288,"dock_count":15,"city":"Redwood City","installation_date":"8/12/2013"}
{"id":26,"name":"Redwood City Medical Center","lat":37.487682,"long":-122.223492,"dock_count":15,"city":"Redwood City","installation_date":"8/12/2013"}
{"id":27,"name":"Mountain View City Hall","lat":37.389218,"long":-122.081896,"dock_count":15,"city":"Mountain View","installation_date":"8/16/2013"}
{"id":28,"name":"Mountain View Caltrain Station","lat":37.394358,"long":-122.076713,"dock_count":23,"city":"Mountain View","installation_date":"8/15/2013"}
{"id":29,"name":"San Antonio Caltrain Station","lat":37.40694,"long":-122.106758,"dock_count":23,"city":"Mountain View","installation_date":"8/15/2013"}
{"id":30,"name":"Evelyn Park and Ride","lat":37.390277,"long":-122.066553,"dock_count":15,"city":"Mountain View","installation_date":"8/16/2013"}
{"id":31,"name":"San Antonio Shopping Center","lat":37.400443,"long":-122.108338,"dock_count":15,"city":"Mountain View","installation_date":"12/31/2013"}
{"id":32,"name":"Castro Street and El Camino Real","lat":37.385956,"long":-122.083678,"dock_count":11,"city":"Mountain View","installation_date":"12/31/2013"}
{"id":33,"name":"Rengstorff Avenue / California Street","lat":37.400241,"long":-122.099076,"dock_count":15,"city":"Mountain View","installation_date":"8/16/2013"}
{"id":34,"name":"Palo Alto Caltrain Station","lat":37.443988,"long":-122.164759,"dock_count":23,"city":"Palo Alto","installation_date":"8/14/2013"}
{"id":35,"name":"University and Emerson","lat":37.444521,"long":-122.163093,"dock_count":11,"city":"Palo Alto","installation_date":"8/15/2013"}
{"id":36,"name":"California Ave Caltrain Station","lat":37.429082,"long":-122.142805,"dock_count":15,"city":"Palo Alto","installation_date":"8/14/2013"}
{"id":37,"name":"Cowper at University","lat":37.448598,"long":-122.159504,"dock_count":11,"city":"Palo Alto","installation_date":"8/14/2013"}
{"id":38,"name":"Park at Olive","lat":37.4256839,"long":-122.1377775,"dock_count":15,"city":"Palo Alto","installation_date":"8/14/2013"}
{"id":39,"name":"Powell Street BART","lat":37.783871,"long":-122.408433,"dock_count":19,"city":"San Francisco","installation_date":"8/25/2013"}
{"id":41,"name":"Clay at Battery","lat":37.795001,"long":-122.39997,"dock_count":15,"city":"San Francisco","installation_date":"8/19/2013"}
{"id":42,"name":"Davis at Jackson","lat":37.79728,"long":-122.398436,"dock_count":15,"city":"San Francisco","installation_date":"8/19/2013"}
{"id":45,"name":"Commercial at Montgomery","lat":37.794231,"long":-122.402923,"dock_count":15,"city":"San Francisco","installation_date":"8/19/2013"}
{"id":46,"name":"Washington at Kearney","lat":37.795425,"long":-122.404767,"dock_count":15,"city":"San Francisco","installation_date":"8/19/2013"}
{"id":47,"name":"Post at Kearney","lat":37.788975,"long":-122.403452,"dock_count":19,"city":"San Francisco","installation_date":"8/19/2013"}
{"id":48,"name":"Embarcadero at Vallejo","lat":37.799953,"long":-122.398525,"dock_count":15,"city":"San Francisco","installation_date":"8/19/2013"}
{"id":49,"name":"Spear at Folsom","lat":37.790302,"long":-122.390637,"dock_count":19,"city":"San Francisco","installation_date":"8/20/2013"}
{"id":50,"name":"Harry Bridges Plaza (Ferry Building)","lat":37.795392,"long":-122.394203,"dock_count":23,"city":"San Francisco","installation_date":"8/20/2013"}
{"id":51,"name":"Embarcadero at Folsom","lat":37.791464,"long":-122.391034,"dock_count":19,"city":"San Francisco","installation_date":"8/20/2013"}
{"id":54,"name":"Embarcadero at Bryant","lat":37.787152,"long":-122.388013,"dock_count":15,"city":"San Francisco","installation_date":"8/20/2013"}
{"id":55,"name":"Temporary Transbay Terminal (Howard at Beale)","lat":37.789756,"long":-122.394643,"dock_count":23,"city":"San Francisco","installation_date":"8/20/2013"}
{"id":56,"name":"Beale at Market","lat":37.792251,"long":-122.397086,"dock_count":19,"city":"San Francisco","installation_date":"8/20/2013"}
{"id":57,"name":"5th at Howard","lat":37.781752,"long":-122.405127,"dock_count":15,"city":"San Francisco","installation_date":"8/21/2013"}
{"id":58,"name":"San Francisco City Hall","lat":37.77865,"long":-122.418235,"dock_count":19,"city":"San Francisco","installation_date":"8/21/2013"}
{"id":59,"name":"Golden Gate at Polk","lat":37.781332,"long":-122.418603,"dock_count":23,"city":"San Francisco","installation_date":"8/21/2013"}
{"id":60,"name":"Embarcadero at Sansome","lat":37.80477,"long":-122.403234,"dock_count":15,"city":"San Francisco","installation_date":"8/21/2013"}
{"id":61,"name":"2nd at Townsend","lat":37.780526,"long":-122.390288,"dock_count":27,"city":"San Francisco","installation_date":"8/22/2013"}
{"id":62,"name":"2nd at Folsom","lat":37.785299,"long":-122.396236,"dock_count":19,"city":"San Francisco","installation_date":"8/22/2013"}
{"id":63,"name":"Howard at 2nd","lat":37.786978,"long":-122.398108,"dock_count":19,"city":"San Francisco","installation_date":"8/22/2013"}
{"id":64,"name":"2nd at South Park","lat":37.782259,"long":-122.392738,"dock_count":15,"city":"San Francisco","installation_date":"8/22/2013"}
{"id":65,"name":"Townsend at 7th","lat":37.771058,"long":-122.402717,"dock_count":15,"city":"San Francisco","installation_date":"8/22/2013"}
{"id":66,"name":"South Van Ness at Market","lat":37.774814,"long":-122.418954,"dock_count":19,"city":"San Francisco","installation_date":"8/23/2013"}
{"id":67,"name":"Market at 10th","lat":37.776619,"long":-122.417385,"dock_count":27,"city":"San Francisco","installation_date":"8/23/2013"}
{"id":68,"name":"Yerba Buena Center of the Arts (3rd @ Howard)","lat":37.784878,"long":-122.401014,"dock_count":19,"city":"San Francisco","installation_date":"8/23/2013"}
{"id":69,"name":"San Francisco Caltrain 2 (330 Townsend)","lat":37.7766,"long":-122.39547,"dock_count":23,"city":"San Francisco","installation_date":"8/23/2013"}
{"id":70,"name":"San Francisco Caltrain (Townsend at 4th)","lat":37.776617,"long":-122.39526,"dock_count":19,"city":"San Francisco","installation_date":"8/23/2013"}
{"id":71,"name":"Powell at Post (Union Square)","lat":37.788446,"long":-122.408499,"dock_count":19,"city":"San Francisco","installation_date":"8/23/2013"}
{"id":72,"name":"Civic Center BART (7th at Market)","lat":37.781039,"long":-122.411748,"dock_count":23,"city":"San Francisco","installation_date":"8/23/2013"}
{"id":73,"name":"Grant Avenue at Columbus Avenue","lat":37.798522,"long":-122.407245,"dock_count":15,"city":"San Francisco","installation_date":"8/21/2013"}
{"id":74,"name":"Steuart at Market","lat":37.794139,"long":-122.394434,"dock_count":23,"city":"San Francisco","installation_date":"8/25/2013"}
{"id":75,"name":"Mechanics Plaza (Market at Battery)","lat":37.7913,"long":-122.399051,"dock_count":19,"city":"San Francisco","installation_date":"8/25/2013"}
{"id":76,"name":"Market at 4th","lat":37.786305,"long":-122.404966,"dock_count":19,"city":"San Francisco","installation_date":"8/25/2013"}
{"id":77,"name":"Market at Sansome","lat":37.789625,"long":-122.400811,"dock_count":27,"city":"San Francisco","installation_date":"8/25/2013"}
{"id":80,"name":"Santa Clara County Civic Center","lat":37.352601,"long":-121.905733,"dock_count":15,"city":"San Jose","installation_date":"12/31/2013"}
{"id":82,"name":"Broadway St at Battery St","lat":37.798541,"long":-122.400862,"dock_count":15,"city":"San Francisco","installation_date":"1/22/2014"}
{"id":83,"name":"Mezes Park","lat":37.491269,"long":-122.236234,"dock_count":15,"city":"Redwood City","installation_date":"2/20/2014"}
{"id":84,"name":"Ryland Park","lat":37.342725,"long":-121.895617,"dock_count":15,"city":"San Jose","installation_date":"4/9/2014"}